PARM_Name,PARM_Value,GPS_Status,GPS_TimeMS,GPS_Week,GPS_NSats,GPS_HDop,GPS_Lat,GPS_Lng,GPS_RelAlt,GPS_Alt,GPS_Spd,GPS_GCrs,GPS_VZ,GPS_T,IMU_TimeMS,IMU_GyrX,IMU_GyrY,IMU_GyrZ,IMU_AccX,IMU_AccY,IMU_AccZ,MSG_Message,RCIN_TimeMS,RCIN_C1,RCIN_C2,RCIN_C3,RCIN_C4,RCIN_C5,RCIN_C6,RCIN_C7,RCIN_C8,RCIN_C9,RCIN_C10,RCIN_C11,RCIN_C12,RCIN_C13,RCIN_C14,RCOU_TimeMS,RCOU_Chan1,RCOU_Chan2,RCOU_Chan3,RCOU_Chan4,RCOU_Chan5,RCOU_Chan6,RCOU_Chan7,RCOU_Chan8,BARO_TimeMS,BARO_Alt,BARO_Press,BARO_Temp,BARO_CRt,POWR_TimeMS,POWR_Vcc,POWR_VServo,POWR_Flags,CMD_TimeMS,CMD_CTot,CMD_CNum,CMD_CId,CMD_Prm1,CMD_Prm2,CMD_Prm3,CMD_Prm4,CMD_Lat,CMD_Lng,CMD_Alt,RAD_TimeMS,RAD_RSSI,RAD_RemRSSI,RAD_TxBuf,RAD_Noise,RAD_RemNoise,RAD_RxErrors,RAD_Fixed,CAM_GPSTime,CAM_GPSWeek,CAM_Lat,CAM_Lng,CAM_Alt,CAM_RelAlt,CAM_Roll,CAM_Pitch,CAM_Yaw,GPS2_Status,GPS2_TimeMS,GPS2_Week,GPS2_NSats,GPS2_HDop,GPS2_Lat,GPS2_Lng,GPS2_Alt,GPS2_Spd,GPS2_GCrs,GPS2_VZ,GPS2_T,GPS2_DSc,GPS2_DAg,IMU2_TimeMS,IMU2_GyrX,IMU2_GyrY,IMU2_GyrZ,IMU2_AccX,IMU2_AccY,IMU2_AccZ,IMU3_TimeMS,IMU3_GyrX,IMU3_GyrY,IMU3_GyrZ,IMU3_AccX,IMU3_AccY,IMU3_AccZ,AHR2_TimeMS,AHR2_Roll,AHR2_Pitch,AHR2_Yaw,AHR2_Alt,AHR2_Lat,AHR2_Lng,SIM_TimeMS,SIM_Roll,SIM_Pitch,SIM_Yaw,SIM_Alt,SIM_Lat,SIM_Lng,EKF1_TimeMS,EKF1_Roll,EKF1_Pitch,EKF1_Yaw,EKF1_VN,EKF1_VE,EKF1_VD,EKF1_PN,EKF1_PE,EKF1_PD,EKF1_GX,EKF1_GY,EKF1_GZ,EKF2_TimeMS,EKF2_AX,EKF2_AY,EKF2_AZ,EKF2_VWN,EKF2_VWE,EKF2_MN,EKF2_ME,EKF2_MD,EKF2_MX,EKF2_MY,EKF2_MZ,EKF3_TimeMS,EKF3_IVN,EKF3_IVE,EKF3_IVD,EKF3_IPN,EKF3_IPE,EKF3_IPD,EKF3_IMX,EKF3_IMY,EKF3_IMZ,EKF3_IVT,EKF4_TimeMS,EKF4_SV,EKF4_SP,EKF4_SH,EKF4_SMX,EKF4_SMY,EKF4_SMZ,EKF4_SVT,EKF4_OFN,EKF4_EFE,EKF4_FS,EKF4_DS,TERR_TimeMS,TERR_Status,TERR_Lat,TERR_Lng,TERR_Spacing,TERR_TerrH,TERR_CHeight,TERR_Pending,TERR_Loaded,UBX1_TimeMS,UBX1_Instance,UBX1_noisePerMS,UBX1_jamInd,UBX1_aPower,UBX2_TimeMS,UBX2_Instance,UBX2_ofsI,UBX2_magI,UBX2_ofsQ,UBX2_magQ,ATUN_Axis,ATUN_TuneStep,ATUN_RateMin,ATUN_RateMax,ATUN_RPGain,ATUN_RDGain,ATUN_SPGain,ATDE_Angle,ATDE_Rate,CURR_TimeMS,CURR_ThrOut,CURR_ThrInt,CURR_Volt,CURR_Curr,CURR_Vcc,CURR_CurrTot,OF_Dx,OF_Dy,OF_SQual,OF_X,OF_Y,OF_Roll,OF_Pitch,NTUN_TimeMS,NTUN_DPosX,NTUN_DPosY,NTUN_PosX,NTUN_PosY,NTUN_DVelX,NTUN_DVelY,NTUN_VelX,NTUN_VelY,NTUN_DAccX,NTUN_DAccY,CTUN_TimeMS,CTUN_ThrIn,CTUN_AngBst,CTUN_ThrOut,CTUN_DAlt,CTUN_Alt,CTUN_BarAlt,CTUN_DSAlt,CTUN_SAlt,CTUN_DCRt,CTUN_CRt,MAG_TimeMS,MAG_MagX,MAG_MagY,MAG_MagZ,MAG_OfsX,MAG_OfsY,MAG_OfsZ,MAG_MOfsX,MAG_MOfsY,MAG_MOfsZ,MAG2_TimeMS,MAG2_MagX,MAG2_MagY,MAG2_MagZ,MAG2_OfsX,MAG2_OfsY,MAG2_OfsZ,MAG2_MOfsX,MAG2_MOfsY,MAG2_MOfsZ,MAG3_TimeMS,MAG3_MagX,MAG3_MagY,MAG3_MagZ,MAG3_OfsX,MAG3_OfsY,MAG3_OfsZ,MAG3_MOfsX,MAG3_MOfsY,MAG3_MOfsZ,PM_NLon,PM_NLoop,PM_MaxT,PM_PMT,PM_I2CErr,PM_INSErr,PM_INAVErr,ATT_TimeMS,ATT_DesRoll,ATT_Roll,ATT_DesPitch,ATT_Pitch,ATT_DesYaw,ATT_Yaw,ATT_ErrRP,ATT_ErrYaw,MODE_Mode,MODE_ThrCrs,STRT_,EV_Id,D16_Id,D16_Value,DU16_Id,DU16_Value,D32_Id,D32_Value,DU32_Id,DU32_Value,DFLT_Id,DFLT_Value,ERR_Subsys,ERR_ECode
CAM_DURATION,10.0,,,,,,,,,,,,,,,,,,,,,,,,,,,,,,,,,,,,,,,,,,,,,,,,,,,,,,,,,,,,,,,,,,,,,,,,,,,,,,,,,,,,,,,,,,,,,,,,,,,,,,,,,,,,,,,,,,,,,,,,,,,,,,,,,,,,,,,,,,,,,,,,,,,,,,,,,,,,,,,,,,,,,,,,,,,,,,,,,,,,,,,,,,,,,,,,,,,,,,,,,,,,,,,,,,,,,,,,,,,,,,,,,,,,,,,,,,,,,,,,,,,,,,,,,,,,,,,,,,,,,,,,,,,,,,,,,,,,,,,,,,,,,,,,,,,,,,,,,,,
TERRAIN_SPACING,100.0,3,333989000,1905,8,1.81,-19.8609223,-43.9601958,0.0,803.38,0.24,254.16,-0.0299999993294,180594,180595,-0.00134168332443,0.00238687545061,0.00590181350708,-0.552397668362,-0.186314284801,-10.1688165665,Frame: OCTA_QUAD,180601,1493,1501,993,2016,1326,992,993,1503,0,0,0,0,0,0,180498,1082,1082,1082,1082,1082,1082,1082,1082,180594,0.11117939651,92840.71875,37.77,-0.104779727757,,,,,,,,,,,,,,,,,,,,,,,,,,,,,,,,,,,,,,,,,,,,,,,180595,-0.00220691785216,0.00101681053638,0.00719194952399,-0.710156083107,-0.0848888158798,-9.6792011261,,,,,,,,180601,0.27,-3.43,252.08,803.309997559,-19.8609235,-43.9601978,,,,,,,,180601,0.27,-3.43,252.08,-0.0204324480146,-0.0374369733036,-0.0213822815567,0.0518945865333,0.0666230171919,-0.0399223379791,0.0,0.0,0.0,180601,50,0,0,0.0,0.0,162,-63,-140,54,-1,102,180601,0.2,-0.1,0.04,-0.16,-0.26,0.07,0,0,-2,0.0,180601,0.03,0.06,0.0,0.0,0.0,0.01,0.0,0,0,1,0,,,,,,,,,,180312,0,75,4,1,180312,0,-14,90,6,101,,,,,,,,,,,,,,,,,,,,,,,,180498,3.67917060852,5.4980096817,3.67917060852,5.4980096817,0.0,0.0,3.98082304001,9.09017372131,-18.0624675751,-57.7935791016,180595,0,0,0,-0.00879755523056,0.0,0.11,0.0,0.0,0,-3,180583,3,173,-138,-54,1,-102,0,0,0,180583,-49,212,-153,-178,234,-387,0,0,0,,,,,,,,,,,,,,,,,,180600,0.0,0.15,0.0,-3.62,251.76,251.76,0.15,0.01,5,433,,10,,,,,,,,,,,,
TERRAIN_SPACING,100.0,3,333990000,1905,8,1.81,-19.8609209,-43.9601945,0.01,803.46,0.13,254.16,-0.0799999982119,181602,181764,0.00104817189276,-0.00365943461657,-0.00348376855254,-0.521175503731,0.165352374315,-10.1215629578,Frame: OCTA_QUAD,181709,1492,1502,992,1523,1326,992,992,1504,0,0,0,0,0,0,181709,1082,1082,1082,1082,1082,1082,1082,1082,181703,0.0969256237149,92840.8515625,37.79,0.0147131979465,181781,5.16,5.03,3,,,,,,,,,,,,180955,40,0,100,51,0,0,0,,,,,,,,,,,,,,,,,,,,,,,,181764,-0.00565412081778,2.77943909168e-05,-0.000650011003017,-0.550834298134,0.208472132683,-9.54666805267,,,,,,,,181708,0.3,-3.35,252.13,803.429992676,-19.8609224,-43.9601957,,,,,,,,181708,0.3,-3.35,252.13,-0.0299194939435,0.0183524172753,-0.141405194998,0.171877413988,0.292620509863,-0.159658148885,0.0,0.0,0.0,181708,49,0,0,0.0,0.0,162,-63,-140,54,-1,102,181708,-0.06,0.18,-0.02,-0.2,-0.14,-0.05,0,0,-2,0.0,181708,0.03,0.05,0.0,0.0,0.0,0.01,0.0,0,0,1,0,,,,,,,,,,181039,0,75,4,1,181059,0,-10,91,7,96,,,,,,,,,,181781,0,0,1623,273,5162,18.9098987579,,,,,,,,181709,26.3396167755,41.421875,26.3396167755,41.421875,0.0,0.0,7.70653867722,15.3851041794,-16.5094985962,-59.9517631531,181703,0,0,0,0.0225349143147,0.019999999553,0.09,0.0,0.0,0,-3,181691,2,174,-139,-54,1,-102,0,0,0,181691,-44,204,-151,-178,234,-387,0,0,0,,,,,,,,,,,,,,,,,,181708,0.0,0.17,0.0,-3.62,251.79,251.79,0.05,0.0,5,433,,10,,,,,,,7,674265,,,,
TERRAIN_SPACING,100.0,3,333991200,1905,8,1.81,-19.860919,-43.9601931,0.06,803.45,0.25,254.16,-0.119999997318,182778,182921,0.0080390535295,-0.00292731076479,0.00204788520932,-0.57469946146,0.00592222437263,-10.1090269089,Frame: OCTA_QUAD,182825,1493,1501,992,1442,1326,992,992,1504,0,0,0,0,0,0,182826,1082,1082,1082,1082,1082,1082,1082,1082,182921,0.0969256237149,92840.859375,37.8,-0.426399409771,182796,5.18,5.02,3,,,,,,,,,,,,181861,40,0,100,44,0,0,0,,,,,,,,,,,,,,,,,,,,,,,,182921,-0.00167619436979,-0.00358127430081,0.00337088294327,-0.603835940361,0.124509334564,-9.64227962494,,,,,,,,182825,0.49,-3.16,252.27,803.5,-19.8609202,-43.960194,,,,,,,,182825,0.49,-3.16,252.27,0.0807441622019,0.0692148730159,-0.155215427279,0.41212233901,0.462091654539,-0.221661314368,0.0,0.0,0.0,182825,47,0,0,0.0,0.0,162,-63,-140,54,-1,102,182825,0.0,-0.17,-0.03,-0.2,-0.13,-0.03,1,0,-3,0.0,182825,0.02,0.04,0.0,0.01,0.0,0.02,0.0,0,0,1,0,,,,,,,,,,181039,0,75,4,1,181059,0,-10,91,7,96,,,,,,,,,,182796,0,0,1621,273,5186,19.6834583282,,,,,,,,182826,50.1882476807,59.1821250916,50.1882476807,59.1821250916,0.0,0.0,13.0283870697,15.2756891251,-15.523557663,-57.6297836304,182921,0,0,0,0.0676313117146,0.0599999986589,0.09,0.0,0.0,0,-2,182907,1,173,-138,-54,1,-102,0,0,0,182907,-43,205,-151,-178,234,-387,0,0,0,,,,,,,,,,,,,,,,,,182925,0.0,0.15,0.0,-3.38,251.78,251.78,0.16,0.0,5,433,,10,,,,,,,7,674265,,,,
TERRAIN_SPACING,100.0,3,333992400,1905,8,1.81,-19.8609183,-43.960192,0.08,803.56,0.02,254.16,0.0899999961257,183978,184039,0.00162525940686,0.00174447894096,-0.00153700821102,-0.569092929363,-0.142103940248,-10.1189451218,Frame: OCTA_QUAD,184045,1493,1501,992,992,1327,992,992,1504,0,0,0,0,0,0,184045,1082,1082,1082,1082,1082,1082,1082,1082,184039,0.0969256237149,92840.859375,37.82,-0.280100882053,183814,5.2,5.03,3,,,,,,,,,,,,183936,40,0,100,52,0,0,0,,,,,,,,,,,,,,,,,,,,,,,,184039,-0.00381155125797,0.000956535339355,-0.000548018142581,-0.669661998749,-0.0200798511505,-9.70567035675,,,,,,,,184045,0.31,-3.23,252.46,803.519958496,-19.8609193,-43.9601925,,,,,,,,184045,0.31,-3.23,252.46,0.00919357128441,0.0694857090712,-0.156867012382,0.517895817757,0.622542440891,-0.241335019469,0.0,0.0,0.0,184045,45,0,0,0.0,0.0,162,-63,-140,54,-1,102,184045,0.03,0.09,-0.26,-0.12,-0.05,-0.14,2,0,-2,0.0,184045,0.04,0.02,0.01,0.01,0.0,0.01,0.0,0,0,1,0,,,,,,,,,,183042,0,75,4,1,183061,0,-5,99,11,95,,,,,,,,,,183814,0,0,1621,273,5201,20.4571418762,,,,,,,,183944,67.0506591797,74.211730957,67.0506591797,74.211730957,0.0,0.0,12.9571247101,15.5048332214,-16.1674633026,-57.3356552124,184039,0,0,0,0.092977322638,0.0899999961257,0.09,0.0,0.0,0,-1,184027,1,173,-139,-54,1,-102,0,0,0,184027,-43,202,-152,-178,234,-387,0,0,0,,,,,,,,,,,418,4000,1995807,0,0,0,0,184045,0.0,0.17,0.0,-3.45,251.74,251.74,0.08,0.0,5,433,,10,,,,,,,7,674265,,,,
TERRAIN_SPACING,100.0,3,334003400,1905,8,1.81,-19.8609131,-43.9601835,0.0,804.45,0.13,254.16,0.189999997616,194980,195100,0.00811187550426,-0.00813347473741,-0.0502212718129,-0.335667133331,-0.0947561115026,-10.1736516953,Frame: OCTA_QUAD,195025,1493,1503,992,2016,1326,992,993,1504,0,0,0,0,0,0,195026,1082,1082,1082,1082,1082,1082,1082,1082,195018,0.00285414652899,92841.8515625,38.09,-0.158540531993,184822,5.2,5.02,3,,,,,,,,,,,,183936,40,0,100,52,0,0,0,,,,,,,,,,,,,,,,,,,,,,,,195100,0.00357515364885,-0.00150021165609,-0.0443438068032,-0.408399403095,0.0576367378235,-9.65500259399,,,,,,,,195025,0.51,-3.15,252.75,804.5,-19.860913,-43.9601835,,,,,,,,195025,0.51,-3.15,252.75,-0.0412511378527,-0.0290655903518,-0.0526014231145,-0.0179353393614,-0.0128928478807,-0.00938173290342,0.0,0.0,0.0,195025,49,0,-1,0.0,0.0,162,-63,-137,54,-1,102,195025,-0.15,-0.1,-0.23,0.0,0.0,0.0,2,0,0,0.0,195025,0.05,0.0,0.0,0.01,0.0,0.0,0.0,0,0,1,0,,,,,,,,,,195040,0,74,3,1,195060,0,-19,92,19,106,,,,,,,,,,184822,0,0,1621,273,5202,21.2196407318,,,,,,,,195026,-0.107401132584,-0.829107880592,-0.107401132584,-0.829107880592,0.0,0.0,3.10951757431,-2.43281841278,-15.0634088516,-55.452457428,195018,0,0,0,-0.0105647835881,-0.00999999977648,0.0,0.0,0.0,0,-4,195005,2,173,-138,-54,1,-102,0,0,0,195005,-55,224,-146,-178,234,-387,0,0,0,,,,,,,,,,,418,4000,1995807,0,0,0,0,195025,0.0,0.24,0.0,-3.34,250.6,250.6,0.14,0.02,5,433,,10,,,,,,,7,674265,,,,
TERRAIN_SPACING,100.0,3,334004600,1905,8,1.81,-19.8609126,-43.9601838,0.01,804.47,0.22,254.16,0.25,196187,196228,-0.00349923223257,0.00317945331335,0.016945624724,-0.527977049351,-0.252186536789,-10.0816011429,Frame: OCTA_QUAD,196132,1494,1501,994,1527,1326,993,992,1504,0,0,0,0,0,0,196132,1082,1082,1082,1082,1082,1082,1082,1082,196225,0.0684995129704,92841.1640625,38.12,0.00115639704745,195297,5.19,5.02,3,,,,,,,,,,,,195471,49,0,100,42,0,0,0,,,,,,,,,,,,,,,,,,,,,,,,196228,-0.00531750544906,-0.00501288101077,0.0152025884017,-0.687705516815,-0.134496331215,-9.63072967529,,,,,,,,196132,0.5,-3.07,252.78,804.619995117,-19.8609132,-43.9601836,,,,,,,,196233,0.5,-3.08,252.76,-0.0267650429159,-0.0200874209404,-0.17647562921,-0.0369436889887,-0.0379577837884,-0.135760128498,0.0,0.0,0.0,196233,46,0,-1,0.0,0.0,162,-63,-137,54,-1,102,196132,-0.02,0.13,-0.33,-0.06,-0.02,-0.03,3,0,0,0.0,196132,0.05,0.01,0.0,0.02,0.0,0.0,0.0,0,0,1,0,,,,,,,,,,195040,0,74,3,1,195060,0,-19,92,19,106,,,,,,,,,,195296,0,0,1622,296,5194,22.8060588837,,,,,,,,196132,4.41410493851,-2.1735291481,4.41410493851,-2.1735291481,0.0,0.0,4.50661325455,-1.48410820961,-13.4884433746,-54.1052627563,196225,0,0,0,0.0197070501745,0.00999999977648,0.06,0.0,0.0,0,-3,196213,0,173,-138,-54,1,-102,0,0,0,196213,-44,205,-149,-178,234,-387,0,0,0,,,,,,,,,,,418,4000,1995807,0,0,0,0,196233,0.0,0.31,0.0,-3.27,250.68,250.68,0.03,0.0,5,433,,10,,,,,,,7,674265,,,,
TERRAIN_SPACING,100.0,3,334005600,1905,8,1.81,-19.8609129,-43.9601835,0.0,804.48,0.25,254.16,-0.0399999991059,197194,197357,-0.0064059663564,-0.00176501274109,0.000630974769592,-0.366892814636,-0.047443870455,-10.0498580933,Frame: OCTA_QUAD,197341,1494,1501,995,1523,1327,992,992,1504,0,0,0,0,0,0,197342,1082,1082,1082,1082,1082,1082,1082,1082,197334,0.0570829287171,92841.2890625,38.13,0.342385739088,197311,5.18,5.02,3,,,,,,,,,,,,196379,49,0,100,45,0,0,0,,,,,,,,,,,,,,,,,,,,,,,,197357,-0.00892687961459,0.00303959660232,0.00443538744003,-0.415564894676,0.0251599550247,-9.56792831421,,,,,,,,197341,0.46,-3.03,252.73,804.729980469,-19.8609134,-43.9601837,,,,,,,,197341,0.46,-3.03,252.73,-0.0333149209619,0.0102284904569,-0.22404076159,-0.0629044398665,-0.0350071489811,-0.237420886755,0.0,0.0,0.0,197341,43,0,-1,0.0,0.0,162,-63,-137,54,-1,102,197341,-0.23,-0.17,-0.15,-0.07,-0.04,-0.17,3,0,0,0.0,197341,0.05,0.01,0.01,0.02,0.0,0.0,0.0,0,0,1,0,,,,,,,,,,197053,0,74,4,1,197053,0,-11,89,12,113,,,,,,,,,,197311,0,0,1622,271,5185,24.3336582184,,,,,,,,197342,2.84017944336,-4.86565303802,2.84017944336,-4.86565303802,0.0,0.0,2.38552188873,-0.677809000015,-12.07467556,-51.7483673096,197334,0,0,0,0.00589122762904,0.0,0.05,0.0,0.0,0,-3,197321,1,173,-138,-54,1,-102,0,0,0,197321,-43,204,-150,-178,234,-387,0,0,0,,,,,,,,,,,418,4000,1995807,0,0,0,0,197341,0.0,0.33,0.0,-3.08,250.69,250.69,0.09,0.01,5,433,,10,,,,,,,7,674265,,,,
TERRAIN_SPACING,100.0,3,334006800,1905,8,1.81,-19.8609128,-43.9601837,0.01,804.53,0.06,254.16,0.119999997318,198386,198527,0.0050270697102,-0.00300363451242,-0.0051352083683,-0.51940369606,-0.179145380855,-10.1581411362,Frame: OCTA_QUAD,198452,1493,1501,1052,1517,1327,992,992,1504,0,0,0,0,0,0,198452,1130,1130,1130,1130,1130,1130,1130,1130,198444,0.00285414652899,92841.8515625,38.16,0.0923094600439,198320,5.19,5.03,3,,,,,,,,,,,,198458,49,0,100,43,0,0,0,,,,,,,,,,,,,,,,,,,,,,,,198527,0.00576154142618,-0.00320820510387,-0.00497464369982,-0.563438892365,-0.0843323469162,-9.76367282867,,,,,,,,198452,0.49,-3.0,252.69,804.83996582,-19.8609129,-43.9601835,,,,,,,,198452,0.49,-3.0,252.69,0.00754569051787,0.0320277176797,-0.264697015285,-0.000958874588832,-0.0183526538312,-0.346419692039,0.0,0.0,0.0,198452,42,0,-1,0.0,0.0,162,-63,-137,54,-1,102,198452,0.0,-0.04,-0.37,-0.02,0.0,-0.33,4,0,0,0.0,198452,0.06,0.0,0.03,0.02,0.0,0.0,0.0,0,0,1,0,,,,,,,,,,197053,0,74,4,1,197053,0,-11,89,12,113,,,,,,,,,,198320,135,675,1621,410,5198,25.2582817078,,,,,,,,198452,5.25649452209,-2.89274787903,5.25649452209,-2.89274787903,0.0,0.0,3.93148541451,2.10310673714,-12.2873516083,-50.4895820618,198444,156,0,135,0.014731483534,0.00999999977648,0.0,0.0,0.0,-152,-3,198533,-1,172,-138,-54,1,-102,0,0,0,198533,-58,213,-145,-178,234,-387,0,0,0,,,,,,,,,,,418,4000,1995807,0,0,0,0,198452,0.0,0.29,0.0,-3.01,250.69,250.69,0.08,0.01,5,433,,15,,,,,,,7,150009,,,,
TERRAIN_SPACING,100.0,3,334008000,1905,8,1.81,-19.8609129,-43.9601837,0.02,804.36,0.22,254.16,0.0,199598,199660,0.00381097476929,-0.000140972435474,0.00851348415017,-0.565610647202,-0.282444059849,-10.1852207184,Frame: OCTA_QUAD,199563,1493,1502,1052,1517,1327,992,992,1504,0,0,0,0,0,0,199563,1125,1149,1165,1149,1145,1129,1145,1169,199657,-0.011416586116,92842.0,38.17,-0.192871898413,199330,5.19,5.02,3,,,,,,,,,,,,199387,49,0,100,43,0,0,0,,,,,,,,,,,,,,,,,,,,,,,,199660,-0.00571490451694,0.00342417135835,0.0174972228706,-0.652298092842,-0.370898962021,-9.67422008514,,,,,,,,199563,0.41,-2.99,252.73,804.859985352,-19.860913,-43.9601831,,,,,,,,199664,0.41,-3.0,252.72,0.00783214624971,0.0596261881292,-0.257616609335,-0.00739319017157,0.0314706228673,-0.374815016985,0.0,0.0,0.0,199664,42,0,-1,0.0,0.0,162,-63,-137,54,-1,102,199664,-0.21,0.15,-0.25,-0.01,0.06,-0.37,6,0,0,0.0,199664,0.06,0.01,0.03,0.04,0.0,0.0,0.0,0,0,1,0,,,,,,,,,,199053,0,74,4,1,199072,0,2,162,9,157,,,,,,,,,,199330,135,2025,1616,446,5194,26.4395751953,,,,,,,,199563,1.70100498199,1.60556638241,1.70100498199,1.60556638241,0.0,0.0,2.31522130966,6.31190919876,-12.4903182983,-51.9258232117,199657,156,0,135,0.0262220576406,0.019999999553,-0.01,0.0,0.0,-152,-2,199644,0,173,-137,-54,1,-102,0,0,0,199644,-58,215,-146,-178,234,-387,0,0,0,,,,,,,,,,,418,4000,1995807,0,0,0,0,199664,0.0,0.33,0.0,-3.1,250.76,250.76,0.07,0.0,5,433,,15,,,,,,,7,150009,,,,
TERRAIN_SPACING,100.0,3,334009200,1905,8,1.81,-19.8609131,-43.9601841,0.03,804.56,0.09,254.16,0.109999999404,200794,200836,-0.00277033494785,0.00489292293787,-0.0012419745326,-0.449908316135,-0.0211530923843,-10.3218564987,Frame: OCTA_QUAD,200779,1493,1502,1098,1517,1327,992,992,1504,0,0,0,0,0,0,200780,1149,1136,1128,1140,1136,1149,1140,1128,200770,0.085624396801,92841.0,38.18,-0.120858095586,200341,5.19,5.02,3,,,,,,,,,,,,200539,49,0,100,50,0,0,0,,,,,,,,,,,,,,,,,,,,,,,,200816,-0.00821407139301,0.00185393542051,0.0019124513492,-0.499604821205,0.0732190608978,-9.57717895508,,,,,,,,200779,0.34,-3.08,252.8,804.909973145,-19.860913,-43.9601835,,,,,,,,200779,0.34,-3.08,252.8,-0.0150036262348,0.0161349903792,-0.272948592901,-0.0111418813467,-0.0159403719008,-0.418055891991,0.0,0.0,0.0,200779,45,0,-1,0.0,0.0,162,-63,-137,54,-1,102,200779,0.04,0.09,-0.31,0.01,0.06,-0.33,6,0,0,0.0,200779,0.05,0.01,0.03,0.04,0.0,0.0,0.0,0,0,1,0,,,,,,,,,,199053,0,74,4,1,199072,0,2,162,9,157,,,,,,,,,,200341,137,3380,1618,441,5199,27.6603813171,,,,,,,,200780,1.98682975769,3.00634431839,1.98682975769,3.00634431839,0.0,0.0,1.63370966911,8.06594085693,-13.9453020096,-50.4343032837,200770,196,0,143,0.0377251431346,0.0299999993294,0.08,0.0,0.0,-127,-2,200758,0,173,-138,-54,1,-102,0,0,0,200758,-60,216,-144,-178,234,-387,0,0,0,,,,,,,,,,,418,4000,1995807,0,0,0,0,200779,0.0,0.19,0.0,-3.04,250.87,250.87,0.06,0.0,5,433,,15,,,,,,,7,150009,,,,
TERRAIN_SPACING,100.0,3,334010400,1905,8,1.81,-19.8609134,-43.9601849,0.03,804.52,0.13,254.16,0.159999996424,202007,202007,0.00383196212351,-0.0127433612943,-0.0146478191018,-0.348911851645,-0.0421542339027,-9.9155626297,Frame: OCTA_QUAD,201911,1494,1502,1190,1517,1326,993,992,1504,0,0,0,0,0,0,201911,1138,1154,1172,1156,1154,1138,1156,1172,202004,0.365330755711,92838.140625,38.13,-1.30111098289,201364,5.19,5.03,3,,,,,,,,,,,,201463,49,0,100,46,0,0,0,,,,,,,,,,,,,,,,,,,,,,,,202007,0.00906731933355,-0.0301775000989,-0.0136676579714,-0.526825129986,0.348094463348,-9.71452140808,,,,,,,,201911,0.2,-3.2,252.86,804.969970703,-19.8609134,-43.9601843,,,,,,,,201911,0.2,-3.2,252.86,-0.0644797161222,-0.0238257311285,-0.285266816616,-0.0625535398722,-0.0994074121118,-0.474778026342,0.0,0.0,0.0,201911,42,0,-1,0.0,0.0,162,-63,-137,54,-1,102,201911,0.01,0.0,-0.51,0.0,0.07,-1.15,5,0,0,0.0,201911,0.08,0.01,0.11,0.03,0.0,0.0,0.0,0,0,1,0,,,,,,,,,,201047,0,74,4,1,201067,0,-16,109,15,94,,,,,,,,,,201364,153,4810,1616,468,5190,28.9172916412,,,,,,,,201911,-2.49999427795,-0.525508880615,-2.49999427795,-0.525508880615,0.0,0.0,-2.62364554405,7.94511413574,-15.6827850342,-49.818523407,202004,283,0,160,0.0353561788797,0.0299999993294,0.36,0.0,0.0,-73,-2,201991,0,173,-138,-54,1,-102,0,0,0,201991,-65,219,-144,-178,234,-387,0,0,0,,,,,,,,,,,418,4000,1995807,0,0,0,0,201911,0.0,0.08,0.0,-3.04,250.99,250.99,0.07,0.0,5,433,,15,,,,,,,7,150009,,,,
TERRAIN_SPACING,100.0,3,334011400,1905,8,1.81,-19.8609133,-43.9601854,0.14,804.43,0.19,254.16,0.00999999977648,202991,203134,0.000120325013995,-0.00381460040808,-0.00169035047293,-0.510756015778,0.157645016909,-9.77128410339,Frame: OCTA_QUAD,203138,1494,1501,1313,1518,1326,992,993,1503,0,0,0,0,0,0,203139,1171,1169,1186,1192,1167,1173,1190,1188,203130,0.194081962109,92839.8828125,38.19,0.260170638561,202388,5.2,5.03,3,,,,,,,,,,,,202608,49,0,100,50,0,0,0,,,,,,,,,,,,,,,,,,,,,,,,203134,-0.00685116834939,-0.0116841234267,0.0146782817319,-0.474564909935,0.424777626991,-9.13311958313,,,,,,,,203138,0.19,-3.28,252.93,805.039978027,-19.8609135,-43.9601852,,,,,,,,203138,0.19,-3.28,252.93,-0.0700113251805,-0.0458732284606,-0.290563583374,-0.0771046727896,-0.195818558335,-0.544574677944,0.0,0.0,0.0,203138,42,0,-1,0.0,0.0,162,-63,-137,54,-1,102,203138,-0.12,0.15,-0.29,-0.02,0.04,-0.34,4,0,0,0.0,203138,0.05,0.01,0.03,0.03,0.0,0.0,0.0,0,0,1,0,,,,,,,,,,203052,0,74,4,1,203052,0,-6,96,14,107,,,,,,,,,,202388,171,6409,1612,537,5204,30.3163871765,,,,,,,,203139,-7.76191234589,-9.9970703125,-7.76191234589,-9.9970703125,0.0,0.0,-6.12059307098,6.00680971146,-15.9329862595,-51.1088790894,203130,383,0,181,0.151836559176,0.149999991059,0.19,0.0,0.0,-10,0,203117,1,174,-138,-54,1,-102,0,0,0,203117,-69,222,-145,-178,234,-387,0,0,0,,,,,,,,,,,418,4000,1995807,0,0,0,0,203138,0.0,0.08,0.0,-3.12,251.12,251.12,0.09,0.0,5,433,,15,,,,,,,7,150009,,,,
TERRAIN_SPACING,100.0,3,334012600,1905,8,1.81,-19.8609134,-43.960187,0.14,804.33,0.22,254.16,0.0,204188,204332,0.00728881917894,-0.00602759420872,0.000490926206112,-0.322098881006,-0.0484780073166,-9.74254512787,Frame: OCTA_QUAD,204257,1493,1502,1397,1518,1326,992,993,1503,0,0,0,0,0,0,204258,1184,1180,1209,1209,1182,1182,1211,1207,204248,0.156978055835,92840.2890625,38.23,-0.513779461384,203412,5.2,5.03,3,,,,,,,,,,,,203533,49,0,100,47,0,0,0,,,,,,,,,,,,,,,,,,,,,,,,204332,-0.000558974221349,-0.0218850262463,0.020369887352,-0.286525130272,0.0583856105804,-9.23559188843,,,,,,,,204257,0.19,-3.42,253.04,805.029968262,-19.8609136,-43.9601871,,,,,,,,204257,0.19,-3.42,253.04,-0.0773691833019,-0.122400864959,-0.271736383438,-0.0821862891316,-0.387871861458,-0.535869717598,0.0,0.0,0.0,204257,44,0,-2,0.0,0.0,162,-63,-137,54,-1,102,204257,0.13,-0.18,-0.28,-0.01,0.02,-0.38,2,0,0,0.0,204257,0.05,0.0,0.03,0.01,0.0,0.0,0.0,0,0,1,0,,,,,,,,,,203052,0,74,4,1,203052,0,-6,96,14,107,,,,,,,,,,203412,184,8190,1614,582,5207,31.920841217,,,,,,,,204258,-9.7200756073,-27.1352825165,-9.7200756073,-27.1352825165,0.0,0.0,-7.56428480148,-0.378967314959,-17.5138778687,-50.679145813,204248,457,0,196,0.140340596437,0.140000000596,0.15,0.0,0.0,0,-1,204337,1,173,-138,-54,1,-102,0,0,0,204337,-72,224,-148,-178,234,-387,0,0,0,,,,,,,,,,,418,4000,1995807,0,0,0,0,204257,0.0,-0.01,0.0,-3.12,251.29,251.29,0.12,0.0,5,433,,15,,,,,,,7,150009,,,,
TERRAIN_SPACING,100.0,3,334013800,1905,8,1.81,-19.8609138,-43.960188,0.17,804.08,0.07,254.16,0.299999982119,205402,205484,-0.000569416210055,0.00251574069262,0.00824684277177,-0.130702316761,0.171468779445,-9.94483470917,Frame: OCTA_QUAD,205388,1494,1501,1476,1517,1327,992,992,1504,0,0,0,0,0,0,205388,1211,1218,1211,1205,1218,1211,1205,1211,205482,0.379601478577,92838.0,38.18,-1.2512948513,205459,5.19,5.03,3,,,,,,,,,,,,204695,49,0,100,49,0,0,0,,,,,,,,,,,,,,,,,,,,,,,,205484,0.00640885904431,-0.0222318768501,0.0201298221946,0.0387471914291,0.291982889175,-9.20640087128,,,,,,,,205388,0.17,-3.38,253.08,805.070007324,-19.8609143,-43.9601881,,,,,,,,205489,0.16,-3.36,253.09,-0.118881687522,-0.103414595127,-0.253575056791,-0.16154371202,-0.504042983055,-0.547066807747,0.0,0.0,0.0,205388,39,0,-3,0.0,0.0,162,-63,-137,54,-1,102,205388,-0.21,-0.1,-0.23,-0.02,0.01,-0.85,7,0,0,0.0,205388,0.05,0.0,0.08,0.04,0.0,0.0,0.0,0,0,1,0,,,,,,,,,,205049,0,74,5,1,205049,0,-4,99,13,91,,,,,,,,,,205459,210,12145,1609,703,5198,35.595413208,,,,,,,,205388,-17.4836235046,-43.5852890015,-17.4836235046,-43.5852890015,0.0,0.0,-11.5792331696,-4.34544610977,-15.9616346359,-51.6510124207,205482,526,0,210,0.147510811687,0.140000000596,0.37,0.0,0.0,0,-2,205469,0,173,-137,-54,1,-102,0,0,0,205469,-83,232,-142,-178,234,-387,0,0,0,,,,,,,,,,,283,4000,33000,0,0,0,0,205489,0.0,0.04,0.0,-3.14,251.4,251.4,0.07,0.0,5,433,,15,,,,,,,7,150009,,,,
TERRAIN_SPACING,100.0,3,334015000,1905,8,1.81,-19.8609145,-43.9601891,0.17,803.82,0.19,254.16,0.199999988079,206591,206632,-0.00736657436937,0.0115110948682,0.0157580133528,-0.458594560623,-0.493292659521,-9.96454334259,Frame: OCTA_QUAD,206618,1494,1501,1542,1518,1326,992,993,1503,0,0,0,0,0,0,206618,1195,1224,1244,1228,1218,1202,1222,1250,206609,0.156978055835,92840.28125,38.23,0.308624386787,206484,5.17,5.03,3,,,,,,,,,,,,205603,49,0,100,46,0,0,0,,,,,,,,,,,,,,,,,,,,,,,,206632,-0.00272000394762,0.0101078748703,0.00274511519819,-0.550805866718,-0.298105061054,-9.44351959229,,,,,,,,206618,0.2,-3.32,253.13,805.039978027,-19.860915,-43.960189,,,,,,,,206618,0.2,-3.32,253.13,-0.140362039208,-0.0915154069662,-0.235142186284,-0.243939012289,-0.59187400341,-0.547579109669,0.0,0.0,0.0,206618,41,0,-2,0.0,0.0,162,-63,-137,54,-1,102,206618,-0.09,0.08,-0.43,-0.05,0.03,-0.38,4,-1,0,0.0,206618,0.07,0.01,0.03,0.02,0.01,0.0,0.0,0,0,1,0,,,,,,,,,,205049,0,74,5,1,205049,0,-4,99,13,91,,,,,,,,,,206484,220,14294,1607,740,5178,37.6506271362,,,,,,,,206618,-25.7912197113,-56.2069473267,-25.7912197113,-56.2069473267,0.0,0.0,-13.4205150604,-7.43633031845,-15.6396980286,-52.8675765991,206609,584,0,221,0.174708560109,0.170000001788,0.15,0.0,0.0,0,0,206597,2,175,-138,-54,1,-102,0,0,0,206597,-85,235,-144,-178,234,-387,0,0,0,,,,,,,,,,,283,4000,33000,0,0,0,0,206617,0.0,0.11,0.0,-3.21,251.49,251.49,0.13,0.0,5,433,,15,,,,,,,7,150009,,,,
TERRAIN_SPACING,100.0,3,334016200,1905,8,1.81,-19.8609147,-43.96019,0.15,803.73,0.09,254.16,-0.0599999986589,207790,207811,-0.0113828610629,0.0107225999236,0.00266722775996,-0.347958356142,-0.26911509037,-10.1790142059,Frame: OCTA_QUAD,207734,1493,1502,1576,1517,1327,992,992,1504,0,0,0,0,0,0,207735,1264,1296,1165,1133,1296,1264,1133,1165,207727,0.0456663444638,92841.421875,38.25,-0.20266880095,207500,5.19,5.02,3,,,,,,,,,,,,207689,53,0,100,54,0,0,0,,,,,,,,,,,,,,,,,,,,,,,,207811,-0.0209299623966,0.0199717506766,0.00877644587308,-0.459718465805,-0.0831100940704,-9.76765155792,,,,,,,,207734,0.18,-3.17,253.16,805.010009766,-19.860915,-43.9601899,,,,,,,,207734,0.18,-3.17,253.16,-0.100262790918,-0.0703467726707,-0.221063062549,-0.241089612246,-0.69043135643,-0.510455965996,0.0,0.0,0.0,207734,42,0,-3,0.0,0.0,162,-63,-137,54,-1,102,207734,-0.1,0.0,-0.19,-0.03,0.0,-0.47,4,0,-1,0.0,207734,0.03,0.0,0.04,0.03,0.0,0.0,0.0,0,0,1,0,,,,,,,,,,207038,0,74,4,1,207059,0,-1,161,10,156,,,,,,,,,,207500,208,16436,1609,743,5198,39.8795166016,,,,,,,,207735,-29.8014125824,-60.1286392212,-27.5060844421,-71.2235565186,-2.35757064819,10.9635467529,-12.1611251831,-9.42719268799,-0.949806213379,-18.423614502,207727,614,0,212,0.245260208845,0.149999991059,0.04,0.0,0.0,8,-1,207815,2,174,-136,-54,1,-102,0,0,0,207815,-96,235,-144,-178,234,-387,0,0,0,,,,,,,,,,,283,4000,33000,0,0,0,0,207734,0.28,-0.06,-1.03,-3.11,251.53,251.6,0.12,0.0,5,433,,28,,,,,,,7,149881,,,,
TERRAIN_SPACING,100.0,3,334017200,1905,8,1.81,-19.8609145,-43.9601903,0.16,803.93,0.14,254.16,-0.149999991059,208798,208962,-0.013486337848,0.03066701442,-0.00221026688814,-0.118394516408,-0.0351664274931,-9.92628765106,Frame: OCTA_QUAD,208966,1493,1502,1597,1517,1326,992,993,1504,0,0,0,0,0,0,208865,1349,1431,1314,1249,1422,1358,1241,1322,208958,0.225477576256,92839.578125,38.25,0.884119570255,208526,5.19,5.03,3,,,,,,,,,,,,208602,55,0,100,56,0,0,0,,,,,,,,,,,,,,,,,,,,,,,,208962,-0.0186649262905,0.017216488719,0.00358208920807,-0.0778009295464,0.279574632645,-9.51175117493,,,,,,,,208966,-0.63,-1.84,253.14,805.049987793,-19.860915,-43.9601899,,,,,,,,208966,-0.63,-1.84,253.14,-0.0764748752117,-0.00408079335466,-0.242791339755,-0.235036537051,-0.686572492123,-0.554941475391,0.0,0.0,0.0,208966,43,0,-3,0.0,0.0,162,-63,-137,54,-1,102,208966,-0.23,0.02,-0.07,-0.05,0.04,-0.31,7,-2,-3,0.0,208966,0.03,0.01,0.03,0.04,0.01,0.02,0.0,0,0,1,0,,,,,,,,,,207038,0,74,4,1,207059,0,-1,161,10,156,,,,,,,,,,208526,285,18766,1600,1082,5198,42.3226242065,,,,,,,,208865,-29.8014125824,-60.1286392212,-27.9474182129,-75.709564209,-1.85910797119,15.5305938721,-10.9307260513,-6.12591171265,0.84238243103,-10.0004615784,208958,632,0,336,0.463351279497,0.179999992251,0.22,0.0,0.0,20,-1,208945,2,178,-131,-54,1,-102,0,0,0,208945,-196,292,-128,-178,234,-387,0,0,0,,,,,,,,,,,283,4000,33000,0,0,0,0,208966,0.2,-0.83,-0.46,-1.86,251.53,251.65,0.12,0.01,5,433,,28,,,,,,,7,149881,,,,
TERRAIN_SPACING,100.0,3,334018400,1905,8,1.81,-19.8609146,-43.9601909,0.19,803.89,0.16,254.16,-0.00999999977648,210001,210143,-0.0229402538389,0.0329789742827,0.0112912412733,-0.275774866343,-0.489660352468,-10.334485054,Frame: OCTA_QUAD,210087,1493,1501,992,1492,1326,993,992,1504,0,0,0,0,0,0,210088,1292,1422,1242,1137,1410,1305,1125,1254,210080,0.271143913269,92839.125,38.29,-0.424737155437,209547,5.14,5.03,3,,,,,,,,,,,,209762,57,0,100,44,0,0,0,,,,,,,,,,,,,,,,,,,,,,,,210143,-0.0338770113885,0.036174274981,0.00107859540731,-0.362603604794,-0.280196964741,-9.90035915375,,,,,,,,210087,-0.49,-1.61,253.61,805.079956055,-19.8609148,-43.9601901,,,,,,,,210087,-0.49,-1.61,253.61,-0.0524208247662,0.00557164894417,-0.24749840796,-0.219226807356,-0.710125088692,-0.589340209961,0.0,0.0,0.0,210087,41,0,-4,0.0,0.0,162,-63,-137,54,-1,102,210087,-0.13,0.12,-0.23,-0.03,0.08,-0.32,5,-1,-2,0.0,210087,0.04,0.01,0.03,0.03,0.01,0.01,0.0,0,0,1,0,,,,,,,,,,209042,0,74,5,1,209042,0,-9,76,7,78,,,,,,,,,,209547,293,22012,1590,1386,5146,46.9296264648,,,,,,,,210088,-29.8014125824,-60.1286392212,-28.1348800659,-78.8084716797,-1.66317176819,18.6412200928,-9.43448162079,-2.72240948677,3.56184482574,2.92976784706,210080,0,0,248,0.0213250424713,0.179999992251,0.27,0.0,0.0,-250,-2,210067,5,176,-133,-54,1,-102,0,0,0,210067,-151,260,-143,-178,234,-387,0,0,0,,,,,,,,,,,283,4000,33000,0,0,0,0,210087,0.14,-0.71,0.22,-1.6,251.53,252.18,0.14,0.0,5,433,,28,,,,,,,7,149881,,,,
TERRAIN_SPACING,100.0,3,334019600,1905,8,1.81,-19.8609151,-43.9601916,0.24,803.86,0.04,254.16,0.129999995232,211194,211338,0.0259815528989,-0.0805767253041,0.0240846853703,-0.0946019217372,0.0875319689512,-9.74162387848,Frame: OCTA_QUAD,211241,1493,1501,992,1534,1326,992,993,1503,0,0,0,0,0,0,211241,1325,1426,1213,1137,1414,1338,1125,1226,211335,0.259727329016,92839.2421875,38.28,-0.385867655277,210585,5.14,5.05,3,,,,,,,,,,,,210678,57,0,100,45,0,0,0,,,,,,,,,,,,,,,,,,,,,,,,211338,0.0109586641192,-0.0902029722929,0.0331403613091,-0.082401573658,0.212936758995,-9.21237373352,,,,,,,,211241,-0.01,-1.06,253.78,805.130004883,-19.8609148,-43.960191,,,,,,,,211240,-0.01,-1.06,253.78,-0.0446948744357,-0.0327577069402,-0.250681728125,-0.218899697065,-0.801572203636,-0.638712465763,0.0,0.0,0.0,211241,41,1,-4,0.0,0.0,162,-63,-137,54,-1,102,211241,-0.08,0.0,-0.38,0.03,0.06,-0.38,6,-1,-1,0.0,211241,0.06,0.01,0.03,0.04,0.01,0.0,0.0,0,0,1,0,,,,,,,,,,211050,0,79,5,1,211050,0,-6,150,24,102,,,,,,,,,,210585,237,24495,1588,1398,5149,50.6700439453,,,,,,,,211241,-28.1065292358,-86.3462677002,-28.1065292358,-86.3462677002,0.0,0.0,-6.35858488083,-5.49415302277,7.45497703552,0.113864183426,211335,0,0,208,0.0213250424713,0.25,0.25,0.0,0.0,-250,0,211322,4,176,-133,-54,1,-102,0,0,0,211322,-197,290,-135,-178,234,-387,0,0,0,,,,,,,,,,,283,4000,33000,0,0,0,0,211342,0.34,0.1,0.15,-1.62,251.58,252.45,0.01,0.02,5,433,,17,,,,,,,7,674169,,,,
TERRAIN_SPACING,100.0,3,334020800,1905,8,1.82,-19.8609156,-43.9601931,0.19,803.69,0.11,254.16,-0.179999992251,212394,212454,0.0057286825031,-0.0079181753099,-0.00792822614312,-0.614643514156,-0.282485306263,-10.0939664841,Frame: OCTA_QUAD,212459,1493,1501,1017,1514,1326,993,992,1504,0,0,0,0,0,0,212460,1082,1082,1082,1082,1082,1082,1082,1082,212451,0.0998951271176,92840.859375,38.32,-0.122856132686,211616,5.19,5.03,3,,,,,,,,,,,,211833,57,0,100,45,0,0,0,,,,,,,,,,,,,,,,,,,,,,,,212454,-0.00406935252249,-0.00646783784032,-0.00766868749633,-0.70281291008,-0.188727021217,-9.57509231567,,,,,,,,212459,-0.41,-3.05,263.74,805.039978027,-19.8609156,-43.9601926,,,,,,,,212459,-0.41,-3.05,263.74,-0.0808237567544,-0.0579931996763,-0.226564019918,-0.306748569012,-0.9701603055,-0.543586850166,0.0,0.0,0.0,212459,44,0,-4,0.0,0.0,162,-63,-137,54,0,102,212459,-0.11,-0.14,-0.05,0.01,0.06,-0.45,5,-3,-1,0.0,212459,0.03,0.01,0.04,0.03,0.02,0.0,0.0,0,0,1,0,,,,,,,,,,211050,0,79,5,1,211050,0,-6,150,24,102,,,,,,,,,,211616,198,26677,1584,1566,5199,54.8947906494,,,,,,,,212460,-33.1928749084,-101.633331299,-33.1928749084,-101.633331299,0.0,0.0,-5.20814228058,-6.97156906128,-16.2037391663,-47.7506523132,212451,0,0,0,0.187380865216,0.179999992251,0.09,0.0,0.0,-250,-2,212438,33,172,-136,-54,1,-102,0,0,0,212438,-9,199,-150,-178,234,-387,0,0,0,,,,,,,,,,,283,4000,33000,0,0,0,0,212459,0.28,-0.56,0.52,-2.88,262.35,262.35,0.04,0.01,5,433,,18,,,,,,,7,936313,,,,
TERRAIN_SPACING,100.0,3,334022000,1905,8,1.82,-19.8609145,-43.9601931,0.08,804.19,0.09,254.16,-0.189999997616,213595,213654,-0.00199399050325,0.0031371563673,-0.000604065135121,-0.391280531883,-0.027358263731,-10.3364591599,Frame: OCTA_QUAD,213580,1493,1501,992,1515,1326,993,992,1504,0,0,0,0,0,0,213580,1082,1082,1082,1082,1082,1082,1082,1082,213571,0.234040006995,92839.5,38.3,-0.398171544075,213650,5.19,5.03,3,,,,,,,,,,,,212762,57,0,100,44,0,0,0,,,,,,,,,,,,,,,,,,,,,,,,213635,-0.00512039102614,7.8696757555e-05,0.0017158659175,-0.476888895035,0.0498591661453,-9.65285873413,,,,,,,,213580,-0.4,-2.93,263.73,804.969970703,-19.8609155,-43.9601929,,,,,,,,213580,-0.4,-2.93,263.73,-0.0549755506217,-0.0268595907837,-0.21495655179,-0.298546493053,-0.996541202068,-0.475014805794,0.0,0.0,0.0,213580,45,0,-5,0.0,0.0,162,-63,-137,54,0,102,213580,-0.04,-0.03,-0.11,-0.1,0.0,-0.23,7,-2,-1,0.0,213580,0.02,0.02,0.02,0.04,0.01,0.0,0.0,0,0,1,0,,,,,,,,,,213040,0,74,4,1,213061,0,-5,97,14,86,,,,,,,,,,213650,0,27497,1614,261,5194,57.9188079834,,,,,,,,213580,-27.2546386719,-104.878311157,-27.2546386719,-104.878311157,0.0,0.0,0.994748651981,-4.98003053665,-16.783208847,-47.7443962097,213571,0,0,0,0.0864157825708,0.0799999982119,0.23,0.0,0.0,-250,-4,213559,31,172,-136,-54,1,-102,0,0,0,213559,-17,200,-146,-178,234,-387,0,0,0,,,,,,,,,,,283,4000,33000,0,0,0,0,213580,0.28,-0.6,0.52,-2.89,262.37,262.37,0.08,0.01,5,433,,18,,,,,,,7,936441,,,,
TERRAIN_SPACING,100.0,3,334023000,1905,8,1.82,-19.8609138,-43.960193,0.06,804.14,0.11,254.16,0.0499999970198,214582,214784,-0.00728996051475,0.00421767681837,0.0018301513046,-0.407887250185,0.00679366663098,-10.2023468018,Frame: OCTA_QUAD,214688,1494,1501,992,1518,1326,992,993,1503,0,0,0,0,0,0,214688,1082,1082,1082,1082,1082,1082,1082,1082,214780,0.0998951271176,92840.859375,38.36,-0.182007551193,214658,5.15,5.02,3,,,,,,,,,,,,213921,57,0,100,41,0,0,0,,,,,,,,,,,,,,,,,,,,,,,,214784,-0.0122476825491,0.00482157617807,0.00309694278985,-0.424645006657,0.104476690292,-9.80993175507,,,,,,,,214688,-0.29,-2.81,263.65,804.950012207,-19.8609144,-43.9601928,,,,,,,,214788,-0.29,-2.8,263.64,0.0213095843792,0.0328846648335,-0.204746946692,-0.162506043911,-0.97935116291,-0.444608300924,0.0,0.0,0.0,214788,41,0,-4,0.0,0.0,162,-63,-137,54,0,102,214788,-0.06,-0.09,-0.27,-0.11,0.0,-0.34,6,-3,0,0.0,214688,0.04,0.02,0.04,0.03,0.01,0.01,0.0,0,0,1,0,,,,,,,,,,213040,0,74,4,1,213061,0,-5,97,14,86,,,,,,,,,,214658,0,27497,1612,266,5156,58.6538047791,,,,,,,,214688,-10.92735672,-105.587783813,-10.92735672,-105.587783813,0.0,0.0,9.27027988434,-1.90287995338,-15.0334196091,-45.5307807922,214780,0,0,0,0.0488571934402,0.0399999991059,0.09,0.0,0.0,-250,-4,214768,31,172,-137,-54,1,-102,0,0,0,214768,-11,201,-148,-178,234,-387,0,0,0,,,,,,,,,,,310,4000,12260,0,0,0,0,214788,0.28,-0.5,0.52,-2.76,262.31,262.31,0.04,0.02,5,433,,18,,,,,,,7,936441,,,,
TERRAIN_SPACING,100.0,3,334024200,1905,8,1.82,-19.8609129,-43.9601929,0.03,804.26,0.19,254.16,-0.019999999553,215792,215912,-0.00497295288369,-0.00175120681524,0.00107477791607,-0.334138929844,0.123048037291,-9.95384407043,Frame: OCTA_QUAD,215897,1494,1501,992,1498,1327,992,992,1504,0,0,0,0,0,0,215898,1082,1082,1082,1082,1082,1082,1082,1082,215890,0.0713536590338,92841.140625,38.38,-0.286264121532,215665,5.19,5.02,3,,,,,,,,,,,,215756,54,0,100,43,0,0,0,,,,,,,,,,,,,,,,,,,,,,,,215912,-0.0112550258636,-0.00336306542158,0.00278754439205,-0.396929979324,0.143174529076,-9.52583789825,,,,,,,,215897,-0.29,-2.76,263.55,804.899963379,-19.8609134,-43.9601922,,,,,,,,215897,-0.29,-2.76,263.55,0.0456556454301,0.0672732442617,-0.194304823875,-0.0570371225476,-0.929329395294,-0.408434689045,0.0,0.0,0.01,215897,44,1,-7,0.0,0.0,162,-63,-137,54,0,102,215897,0.08,-0.11,-0.17,-0.09,0.06,-0.34,3,-2,0,0.0,215897,0.03,0.02,0.03,0.02,0.01,0.0,0.0,0,0,1,0,,,,,,,,,,215047,0,78,4,1,215047,0,-39,121,6,157,,,,,,,,,,215665,0,27497,1617,259,5191,59.389087677,,,,,,,,215898,4.90756607056,-97.6974487305,4.90756607056,-97.6974487305,0.0,0.0,16.0483913422,4.13284254074,-13.8546762466,-45.4927024841,215890,0,0,0,0.0260617826134,0.019999999553,0.07,0.0,0.0,-250,-4,215877,34,171,-137,-54,1,-102,0,0,0,215877,-9,201,-152,-178,234,-387,0,0,0,,,,,,,,,,,310,4000,12260,0,0,0,0,215897,0.28,-0.44,0.52,-2.74,262.24,262.24,0.17,0.0,5,433,,18,,,,,,,7,936441,,,,
TERRAIN_SPACING,100.0,3,334025400,1905,8,1.82,-19.860913,-43.9601929,-0.01,804.43,0.11,254.16,-0.129999995232,216981,217084,-0.00680797640234,0.00455016642809,0.00166608579457,-0.40426492691,-0.071414001286,-10.2632455826,Frame: OCTA_QUAD,217009,1493,1501,992,1509,1327,992,992,1504,0,0,0,0,0,0,217009,1082,1082,1082,1082,1082,1082,1082,1082,217102,0.0570829287171,92841.2890625,38.39,0.049296118319,216675,5.18,5.02,3,,,,,,,,,,,,216908,50,0,100,41,0,0,0,,,,,,,,,,,,,,,,,,,,,,,,217084,-0.000478874891996,0.000960264354944,0.00216487701982,-0.543990015984,-0.0341815948486,-9.90887928009,,,,,,,,217009,-0.35,-2.79,263.51,804.859985352,-19.8609129,-43.960192,,,,,,,,217009,-0.35,-2.79,263.51,0.0204748306423,0.0682895854115,-0.18997015059,-0.00586272543296,-0.906375706196,-0.360392957926,0.0,0.0,0.0,217009,49,1,-6,0.0,0.0,162,-63,-137,54,0,102,217009,0.05,0.18,-0.05,0.0,0.09,-0.42,3,-3,0,0.0,217009,0.03,0.01,0.04,0.02,0.02,0.0,0.0,0,0,1,0,,,,,,,,,,217043,0,73,5,1,217064,0,-17,87,14,108,,,,,,,,,,216675,0,27497,1616,263,5185,60.127040863,,,,,,,,217009,14.5510253906,-92.1515808105,14.5510253906,-92.1515808105,0.0,0.0,18.9949054718,7.68940877914,-13.1540079117,-45.5693397522,217002,0,0,0,-0.0145494453609,-0.00999999977648,-0.06,0.0,0.0,-250,-5,217089,34,173,-137,-54,1,-102,0,0,0,217089,-9,200,-152,-178,234,-387,0,0,0,,,,,,,,,,,310,4000,12260,0,0,0,0,217009,0.28,-0.39,0.52,-2.74,262.19,262.19,0.05,0.0,5,433,,18,,,,,,,7,936441,,,,
TERRAIN_SPACING,100.0,3,334026600,1905,8,1.82,-19.8609125,-43.9601937,-0.04,804.54,0.16,254.16,0.0,218196,218216,0.00969943217933,-0.00218741595745,-0.00340221449733,-0.432804107666,-0.0957897901535,-10.1007814407,Frame: OCTA_QUAD,218120,1494,1501,992,1509,1327,992,992,1504,0,0,0,0,0,0,218121,1082,1082,1082,1082,1082,1082,1082,1082,218213,-0.0513746365905,92842.421875,38.42,-0.0371548235416,217687,5.18,5.02,3,,,,,,,,,,,,217840,48,0,100,41,0,0,0,,,,,,,,,,,,,,,,,,,,,,,,218216,0.0114075578749,-0.000441920012236,-0.00318634137511,-0.549791812897,-0.0147385597229,-9.59679603577,,,,,,,,218221,-0.35,-2.85,263.45,804.829956055,-19.8609127,-43.9601928,,,,,,,,218221,-0.35,-2.85,263.45,0.00391311198473,0.0195264071226,-0.197413727641,0.023936605081,-0.988240480423,-0.339038252831,0.0,0.0,0.01,218221,43,1,-7,0.0,0.0,162,-63,-137,54,0,102,218221,-0.15,0.0,-0.19,-0.02,0.1,-0.39,5,-3,0,0.0,218221,0.04,0.02,0.03,0.03,0.02,0.0,0.0,0,0,1,0,,,,,,,,,,217043,0,73,5,1,217064,0,-17,87,14,108,,,,,,,,,,217687,0,27497,1616,264,5186,60.8632965088,,,,,,,,218121,18.5350914001,-96.0322647095,18.5350914001,-96.0322647095,0.0,0.0,19.6905288696,6.62723112106,-11.7348928452,-44.8345756531,218213,0,0,0,-0.0411891937256,-0.0399999991059,-0.05,0.0,0.0,-250,-5,218200,33,173,-137,-54,1,-102,0,0,0,218200,-11,202,-148,-178,234,-387,0,0,0,,,,,,,,,,,310,4000,12260,0,0,0,0,218221,0.28,-0.32,0.52,-2.65,262.11,262.11,0.09,0.01,5,433,,18,,,,,,,7,936441,,,,
TERRAIN_SPACING,100.0,3,334027600,1905,8,1.82,-19.8609127,-43.9601945,-0.05,804.68,0.07,254.16,0.329999983311,219201,219383,-0.0079006627202,0.00410351157188,0.00019764341414,-0.587821662426,0.226621642709,-10.0966510773,Frame: OCTA_QUAD,219327,1494,1501,992,1509,1327,992,992,1504,0,0,0,0,0,0,219328,1082,1082,1082,1082,1082,1082,1082,1082,219320,-0.011416586116,92842.0,38.45,-0.168584108353,218691,5.16,5.02,3,,,,,,,,,,,,218765,47,0,100,42,0,0,0,,,,,,,,,,,,,,,,,,,,,,,,219383,-0.0137550029904,0.0026681534946,-0.0035395110026,-0.63108754158,0.334329128265,-9.54310131073,,,,,,,,219327,-0.4,-2.91,263.41,804.809997559,-19.8609129,-43.9601941,,,,,,,,219327,-0.4,-2.91,263.41,-0.0266377292573,-0.0382016599178,-0.191206768155,0.0106498096138,-1.12734949589,-0.312364667654,0.0,0.0,0.0,219327,41,1,-6,0.0,0.0,162,-63,-137,54,0,102,219327,-0.09,-0.03,-0.52,0.0,0.06,-0.32,5,-1,-1,0.0,219327,0.08,0.01,0.03,0.03,0.01,0.01,0.0,0,0,1,0,,,,,,,,,,219060,0,73,5,1,219060,0,-14,86,12,104,,,,,,,,,,218691,0,27497,1613,265,5161,61.5959625244,,,,,,,,219328,20.4314460754,-107.82383728,20.4314460754,-107.82383728,0.0,0.0,18.9009475708,2.81958556175,-10.928809166,-44.1478919983,219320,0,0,0,-0.0593906752765,-0.0499999970198,-0.01,0.0,0.0,-250,-5,219306,32,171,-136,-54,1,-102,0,0,0,219306,-12,201,-148,-178,234,-387,0,0,0,,,,,,,,,,,310,4000,12260,0,0,0,0,219327,0.28,-0.27,0.52,-2.64,262.03,262.03,0.03,0.01,5,433,,18,,,,,,,7,936441,,,,
TERRAIN_SPACING,100.0,3,334028800,1905,8,1.82,-19.8609121,-43.9601955,-0.07,805.05,0.13,254.16,-0.0799999982119,220390,220533,0.00859266147017,0.00222465395927,-0.000127077102661,-0.545145630836,-0.024907771498,-10.2094326019,Frame: OCTA_QUAD,220436,1493,1502,992,1509,1327,992,992,1504,0,0,0,0,0,0,220436,1082,1082,1082,1082,1082,1082,1082,1082,220530,0.085624396801,92841.0,38.46,0.179250732064,219702,5.15,5.03,3,,,,,,,,,,,,219915,46,0,100,43,0,0,0,,,,,,,,,,,,,,,,,,,,,,,,220533,0.00250889919698,0.00806691870093,-0.00139362271875,-0.752375602722,0.114869952202,-9.75506687164,,,,,,,,220436,-0.33,-2.91,263.35,804.809997559,-19.8609126,-43.9601955,,,,,,,,220538,-0.32,-2.91,263.34,-0.0013864079956,-0.0720225051045,-0.2062895298,0.0552508682013,-1.2750929594,-0.328099668026,0.0,0.0,0.0,220436,44,1,-8,0.0,0.0,162,-63,-137,54,0,102,220436,-0.14,-0.05,-0.12,-0.06,0.02,-0.16,2,-3,0,0.0,220436,0.03,0.01,0.01,0.01,0.02,0.0,0.0,0,0,1,0,,,,,,,,,,219060,0,73,5,1,219060,0,-14,86,12,104,,,,,,,,,,219702,0,27497,1614,262,5159,62.3352088928,,,,,,,,220436,21.83477211,-119.078048706,21.83477211,-119.078048706,0.0,0.0,18.6355018616,0.695737838745,-9.72445297241,-43.2070960999,220530,0,0,0,-0.0616136156023,-0.0599999986589,0.08,0.0,0.0,-250,-4,220517,34,173,-136,-54,1,-102,0,0,0,220517,-9,201,-151,-178,234,-387,0,0,0,,,,,,,,,,,310,4000,12260,0,0,0,0,220538,0.28,-0.19,0.52,-2.56,261.94,261.94,0.02,0.0,5,433,,18,,,,,,,7,936441,,,,
TERRAIN_SPACING,100.0,3,334030000,1905,8,1.82,-19.8609121,-43.9601952,-0.04,805.44,0.07,254.16,-0.219999998808,221580,221661,-0.000660859048367,0.00678353756666,-0.00078141130507,-0.565487086773,-0.0928464010358,-10.30027771,Frame: OCTA_QUAD,221645,1493,1501,993,1509,1326,992,993,1504,0,0,0,0,0,0,221646,1082,1082,1082,1082,1082,1082,1082,1082,221638,-0.011416586116,92841.9921875,38.49,-0.104293547571,220709,5.15,5.02,3,,,,,,,,,,,,220829,46,0,100,42,0,0,0,,,,,,,,,,,,,,,,,,,,,,,,221661,-0.0101262070239,0.00976772233844,-0.00198087189347,-0.652682483196,0.068444609642,-9.8272190094,,,,,,,,221645,-0.35,-2.78,263.29,804.869995117,-19.8609121,-43.9601955,,,,,,,,221645,-0.35,-2.78,263.29,0.00256696832366,-0.00238141207956,-0.232209831476,0.0944091081619,-1.27145862579,-0.377497196198,0.0,0.0,0.01,221645,47,2,-10,0.0,0.0,162,-63,-137,54,0,102,221645,-0.05,-0.08,-0.01,0.0,-0.05,-0.38,2,-2,0,0.0,221645,0.01,0.01,0.03,0.01,0.01,0.0,0.0,0,0,1,0,,,,,,,,,,221057,0,73,5,1,221057,0,10,175,-2,106,,,,,,,,,,220709,0,27497,1617,261,5159,63.0706710815,,,,,,,,221646,26.2941246033,-123.425003052,26.2941246033,-123.425003052,0.0,0.0,19.0425262451,3.08794116974,-8.83298301697,-42.2490959167,221638,0,0,0,-0.0479249544442,-0.0399999991059,-0.01,0.0,0.0,-250,-4,221626,35,172,-137,-54,1,-102,0,0,0,221626,-9,200,-153,-178,234,-387,0,0,0,,,,,,,,,,,310,4000,12260,0,0,0,0,221645,0.28,-0.16,0.52,-2.51,261.89,261.89,0.04,0.0,5,433,,18,,,,,,,7,936441,,,,
TERRAIN_SPACING,100.0,3,334031200,1905,8,1.82,-19.8609134,-43.9601956,-0.04,805.55,0.08,254.16,-0.0799999982119,222792,222834,-0.00221168482676,-0.00204618275166,-0.00183832459152,-0.421739518642,0.0658640861511,-10.2041397095,Frame: OCTA_QUAD,222757,1493,1501,992,1510,1326,992,992,1504,0,0,0,0,0,0,222758,1082,1082,1082,1082,1082,1082,1082,1082,222750,0.00285414652899,92841.859375,38.52,-0.138301283121,222728,5.18,5.03,3,,,,,,,,,,,,221979,46,0,100,43,0,0,0,,,,,,,,,,,,,,,,,,,,,,,,222834,-0.00253955461085,-0.00622829794884,0.00101761426777,-0.452406227589,0.204951882362,-9.7889213562,,,,,,,,222757,-0.43,-2.77,263.26,804.880004883,-19.8609126,-43.9601953,,,,,,,,222757,-0.43,-2.77,263.26,-0.0497029088438,0.0294906795025,-0.229476347566,0.0352726876736,-1.25396335125,-0.387303650379,0.0,0.0,0.01,222757,46,2,-10,0.0,0.0,162,-63,-137,54,0,102,222757,0.0,0.09,-0.26,0.13,0.03,-0.38,5,-2,0,0.0,222757,0.04,0.02,0.03,0.03,0.01,0.0,0.0,0,0,1,0,,,,,,,,,,221057,0,73,5,1,221057,0,10,175,-2,106,,,,,,,,,,222728,0,27497,1615,262,5182,64.5372085571,,,,,,,,222758,20.7775993347,-120.431816101,20.7775993347,-120.431816101,0.0,0.0,14.7946500778,6.80756378174,-9.94848060608,-41.6977844238,222750,0,0,0,-0.0400214381516,-0.0399999991059,0.0,0.0,0.0,-250,-3,222839,33,173,-137,-54,1,-102,0,0,0,222839,-10,201,-150,-178,234,-387,0,0,0,,,,,,,,,,,310,4000,12260,0,0,0,0,222757,0.28,-0.22,0.52,-2.49,261.83,261.83,0.04,0.01,5,433,,18,,,,,,,7,936441,,,,
TERRAIN_SPACING,100.0,3,334032200,1905,8,1.82,-19.8609145,-43.9601947,-0.02,805.55,0.13,254.16,0.0299999993294,223798,223960,-0.00479156104848,0.00019920617342,-0.000352770090103,-0.384419023991,0.0984120368958,-10.2294960022,Frame: OCTA_QUAD,223864,1493,1501,992,1509,1327,992,992,1504,0,0,0,0,0,0,223864,1082,1082,1082,1082,1082,1082,1082,1082,223957,-0.0285414643586,92842.1484375,38.54,-0.0539742410183,223732,5.15,5.01,3,,,,,,,,,,,,223833,46,0,100,43,0,0,0,,,,,,,,,,,,,,,,,,,,,,,,223960,-0.00293011218309,-0.00258903205395,0.00242471229285,-0.402969181538,0.132585763931,-9.78813266754,,,,,,,,223864,-0.5,-2.7,263.21,804.859985352,-19.8609141,-43.9601947,,,,,,,,223964,-0.49,-2.71,263.21,-0.116601422429,0.0962514951825,-0.205314204097,-0.149559810758,-1.17859184742,-0.366694182158,0.0,0.0,0.01,223964,43,2,-9,0.0,0.0,162,-63,-137,54,0,102,223964,-0.23,0.1,-0.24,0.07,-0.03,-0.39,4,-2,0,0.0,223964,0.05,0.01,0.03,0.02,0.01,0.0,0.0,0,0,1,0,,,,,,,,,,223055,0,73,6,1,223055,0,-13,86,5,93,,,,,,,,,,223732,0,27497,1614,263,5153,65.2689361572,,,,,,,,223864,0.442527770996,-116.773262024,0.442527770996,-116.773262024,0.0,0.0,6.67313051224,10.8379535675,-7.99119091034,-39.9992103577,223957,0,0,0,-0.0271584317088,-0.019999999553,-0.02,0.0,0.0,-250,-2,223944,33,172,-136,-54,1,-102,0,0,0,223944,-9,202,-151,-178,234,-387,0,0,0,,,,,,,,,,,310,4000,12260,0,0,0,0,223964,0.28,-0.07,0.52,-2.41,261.73,261.73,0.11,0.0,5,433,,18,,,,,,,7,936441,,,,
TERRAIN_SPACING,100.0,3,334033400,1905,8,1.82,-19.8609156,-43.9601938,0.01,805.55,0.11,254.16,-0.149999991059,224980,225120,0.00349397026002,-0.0014019832015,0.00268795341253,-0.450248658657,0.0749545991421,-10.0528488159,Frame: OCTA_QUAD,225085,1493,1501,992,1510,1326,992,993,1504,0,0,0,0,0,0,225085,1082,1082,1082,1082,1082,1082,1082,1082,225078,0.0171248782426,92841.7109375,38.55,-0.387733161449,224751,5.19,5.02,3,,,,,,,,,,,,224978,46,0,100,42,0,0,0,,,,,,,,,,,,,,,,,,,,,,,,225100,-0.00774748250842,0.00573858246207,0.00179757736623,-0.476162433624,-0.0141518115997,-9.58602714539,,,,,,,,225085,-0.44,-2.74,263.16,804.859985352,-19.8609155,-43.9601938,,,,,,,,225085,-0.44,-2.74,263.16,-0.133169233799,0.109761811793,-0.195142790675,-0.289651244879,-1.09607815742,-0.368388593197,0.0,0.0,0.01,225085,48,2,-10,0.0,0.0,162,-63,-137,54,0,102,225085,-0.13,0.21,-0.04,0.04,-0.03,-0.35,2,-2,0,0.0,225085,0.04,0.01,0.03,0.01,0.01,0.0,0.0,0,0,1,0,,,,,,,,,,225060,0,72,4,1,225060,0,-12,103,22,96,,,,,,,,,,224751,0,27497,1616,261,5198,66.0033493042,,,,,,,,225085,-17.415977478,-102.887832642,-17.415977478,-102.887832642,0.0,0.0,2.96977877617,16.0355625153,-7.43683576584,-40.761138916,225078,0,0,0,0.00739562977105,0.0,0.01,0.0,0.0,-250,-2,225065,34,172,-136,-54,1,-102,0,0,0,225065,-8,202,-152,-178,234,-387,0,0,0,,,,,,,,,,,214,4000,11488,0,0,0,0,225085,0.28,-0.08,0.52,-2.41,261.65,261.65,0.1,0.0,5,433,,18,,,,,,,7,936441,,,,
TERRAIN_SPACING,100.0,3,334034600,1905,8,1.82,-19.8609163,-43.9601932,-0.01,805.39,0.04,254.16,-0.159999996424,226189,226291,0.00771032273769,-0.00164247304201,0.00165904685855,-0.498736441135,-0.080148845911,-10.4602279663,Frame: OCTA_QUAD,226195,1493,1502,992,1509,1327,992,992,1504,0,0,0,0,0,0,226195,1082,1082,1082,1082,1082,1082,1082,1082,226288,0.114165857434,92840.71875,38.59,0.06580722332,225760,5.2,5.03,3,,,,,,,,,,,,225905,46,0,100,49,0,0,0,,,,,,,,,,,,,,,,,,,,,,,,226270,-0.0103219877928,0.00674545578659,-0.00182211678475,-0.59144538641,0.176634669304,-9.97838592529,,,,,,,,226195,-0.35,-2.76,263.12,804.829956055,-19.8609162,-43.9601931,,,,,,,,226194,-0.35,-2.76,263.12,-0.105084322393,0.110911116004,-0.179506883025,-0.371724933386,-1.01671242714,-0.334198951721,0.0,0.0,0.0,226195,48,1,-8,0.0,0.0,162,-63,-137,54,0,102,226195,-0.07,0.07,-0.01,0.02,0.0,-0.33,3,-2,0,0.0,226195,0.01,0.0,0.03,0.02,0.01,0.0,0.0,0,0,1,0,,,,,,,,,,225060,0,72,4,1,225060,0,-12,103,22,96,,,,,,,,,,225760,0,27497,1617,260,5201,66.7337265015,,,,,,,,226195,-28.6874237061,-93.1228485107,-28.6874237061,-93.1228485107,0.0,0.0,2.19983792305,16.4991855621,-7.14880895615,-41.8130607605,226288,0,0,0,-0.016008682549,-0.00999999977648,0.11,0.0,0.0,-250,-2,226275,34,172,-137,-54,1,-102,0,0,0,226275,-8,202,-153,-178,234,-387,0,0,0,,,,,,,,,,,214,4000,11488,0,0,0,0,226194,0.28,-0.05,0.52,-2.47,261.59,261.59,0.01,0.0,5,433,,18,,,,,,,7,936441,,,,
TERRAIN_SPACING,100.0,3,334044200,1905,8,1.82,-19.8609288,-43.960188,-0.03,802.4,0.09,254.16,0.0399999991059,235793,235847,-0.00139454519376,-2.60770320892e-07,-0.00225835293531,-0.53200417757,-0.0106025077403,-10.1607103348,Frame: OCTA_QUAD,235834,1493,1501,993,1515,1326,993,992,1504,0,0,0,0,0,0,235835,1082,1082,1082,1082,1082,1082,1082,1082,235823,0.0257411990315,92840.875,38.75,0.0674758329988,226768,5.19,5.02,3,,,,,,,,,,,,235814,38,0,100,43,0,0,0,,,,,,,,,,,,,,,,,,,,,,,,235827,-0.000281635671854,0.00201532803476,-0.00316766928881,-0.534693062305,0.107035279274,-9.68804836273,,,,,,,,235834,-0.13,-2.99,263.02,802.679992676,-19.8609288,-43.9601873,,,,,,,,235834,-0.13,-2.99,263.02,-0.0993084535003,0.111898481846,0.00617305701599,-0.0915867313743,0.0990411713719,-0.0455933883786,-0.01,0.0,0.01,235834,49,3,-17,0.0,0.0,165,-64,-134,54,0,102,235834,-0.14,0.03,-0.01,0.02,0.05,-0.02,4,0,1,0.0,235834,0.02,0.01,0.0,0.02,0.0,0.0,0.0,0,0,1,0,,,,,,,,,,225060,0,72,4,1,225060,0,-12,103,22,96,,,,,,,,,,226768,0,27497,1616,257,5196,67.4655532837,,,,,,,,235835,-10.7214097977,2.1621222496,-10.7214097977,2.1621222496,0.0,0.0,-13.4472799301,1.43356359005,-1.54549145699,-47.8791847229,235823,0,0,0,-0.0355335213244,-0.0299999993294,0.02,0.0,0.0,-250,-1,235812,33,172,-137,-54,1,-102,0,0,0,235812,-12,203,-148,-178,234,-387,0,0,0,,,,,,,,,,,214,4000,11488,0,0,0,0,235834,0.28,0.28,0.52,-2.78,262.38,262.38,0.06,0.01,5,360,,10,,,,,,,7,936441,,,,
TERRAIN_SPACING,100.0,3,334045400,1905,8,1.82,-19.8609303,-43.9601879,-0.07,802.17,0.17,254.16,-0.0799999982119,237000,237013,-0.0119012054056,0.0102929919958,-0.0013143196702,-0.445133507252,-0.0632255300879,-10.2387132645,Frame: OCTA_QUAD,236940,1493,1501,992,1515,1326,993,992,1504,0,0,0,0,0,0,236941,1082,1082,1082,1082,1082,1082,1082,1082,237030,-0.165887713432,92842.859375,38.78,0.184952899814,236203,5.2,5.03,3,,,,,,,,,,,,236277,38,0,100,43,0,0,0,,,,,,,,,,,,,,,,,,,,,,,,237013,-0.0116042122245,0.00830660201609,-0.00381786376238,-0.508215904236,0.0178965330124,-9.74484825134,,,,,,,,236940,-0.14,-3.07,262.97,802.66998291,-19.8609295,-43.960187,,,,,,,,236940,-0.14,-3.07,262.97,-0.0760112628341,0.0391938053071,-0.0443401187658,-0.172771170735,0.127283275127,-0.0373324528337,0.0,0.0,0.01,236940,52,3,-16,0.0,0.0,165,-64,-134,54,0,102,236940,0.05,0.05,0.11,0.07,0.1,-0.13,4,0,0,0.0,236940,0.02,0.02,0.01,0.02,0.0,0.0,0.0,0,0,1,0,,,,,,,,,,225060,0,72,4,1,225060,0,-12,103,22,96,,,,,,,,,,236203,0,27497,1620,260,5206,69.1695709229,,,,,,,,236941,-22.8998756409,2.12209129333,-22.8998756409,2.12209129333,0.0,0.0,-11.3493795395,-1.78339540958,-3.71552944183,-46.9355239868,236930,0,0,0,-0.0705576986074,-0.070000000298,-0.09,0.0,0.0,-250,-2,237018,33,172,-137,-54,1,-102,0,0,0,237018,-9,202,-150,-178,234,-387,0,0,0,,,,,,,,,,,214,4000,11488,0,0,0,0,236940,0.28,0.15,0.52,-2.74,262.29,262.29,0.0,0.01,5,360,,10,,,,,,,7,936409,,,,
TERRAIN_SPACING,100.0,3,334046400,1905,8,1.82,-19.8609308,-43.9601876,-0.1,802.08,0.06,254.16,-0.00999999977648,237985,238138,-0.000719955191016,0.0087766200304,-0.00766933709383,-0.537994503975,0.111054137349,-10.0162305832,Frame: OCTA_QUAD,238146,1492,1502,992,1514,1327,992,992,1504,0,0,0,0,0,0,238046,1082,1082,1082,1082,1082,1082,1082,1082,238136,-0.0858039930463,92842.0,38.79,-0.236947536469,237208,5.19,5.02,3,,,,,,,,,,,,237442,38,0,100,46,0,0,0,,,,,,,,,,,,,,,,,,,,,,,,238138,-0.0059861317277,0.01175320521,-0.00180923566222,-0.596564412117,0.24400472641,-9.48914813995,,,,,,,,238146,-0.1,-3.1,262.92,802.679992676,-19.8609303,-43.9601876,,,,,,,,238146,-0.1,-3.1,262.92,-0.0546417944133,-0.0262639652938,-0.0776193365455,-0.265593409538,0.0667190775275,-0.0412795096636,-0.01,0.0,0.01,238146,48,3,-16,0.0,0.0,165,-64,-134,54,0,102,238146,-0.09,0.02,-0.06,0.06,0.01,-0.12,2,0,0,0.0,238146,0.01,0.01,0.01,0.01,0.0,0.0,0.0,0,0,1,0,,,,,,,,,,237060,0,68,5,1,237060,0,-17,74,13,89,,,,,,,,,,237208,0,27497,1617,264,5196,69.9062347412,,,,,,,,238046,-35.8337898254,1.65263926983,-35.8337898254,1.65263926983,0.0,0.0,-9.94213104248,-3.61231660843,-2.80374312401,-47.3837623596,238136,0,0,0,-0.118209801614,-0.109999999404,-0.08,0.0,0.0,-250,-2,238123,34,171,-137,-54,1,-102,0,0,0,238123,-9,202,-151,-178,234,-387,0,0,0,,,,,,,,,,,214,4000,11488,0,0,0,0,238146,0.28,0.23,0.52,-2.8,262.2,262.2,0.07,0.0,5,360,,10,,,,,,,7,936409,,,,
TERRAIN_SPACING,100.0,3,334047600,1905,8,1.82,-19.8609317,-43.9601878,-0.12,802.05,0.16,254.16,0.0999999940395,239194,239287,0.00666237808764,-0.000680409371853,-0.00776026025414,-0.484564125538,-0.0937979593873,-10.101691246,Frame: OCTA_QUAD,239255,1493,1501,992,992,1327,992,992,1504,0,0,0,0,0,0,239255,1082,1082,1082,1082,1082,1082,1082,1082,239245,-0.143006667495,92842.5703125,38.8,-0.13653087616,239222,5.2,5.03,3,,,,,,,,,,,,239274,38,0,100,44,0,0,0,,,,,,,,,,,,,,,,,,,,,,,,239287,0.00615949928761,-0.0024045035243,-0.00641080224887,-0.6053429842,0.0263925790787,-9.66530799866,,,,,,,,239255,-0.14,-3.05,262.89,802.700012207,-19.8609313,-43.960188,,,,,,,,239255,-0.14,-3.05,262.89,-0.0597993470728,-0.0461896359921,-0.112573251128,-0.373859256506,0.028143407777,-0.0660879909992,-0.01,0.0,0.01,239255,48,4,-22,0.0,0.0,165,-64,-134,54,0,102,239255,0.0,0.1,-0.2,0.05,-0.01,-0.21,1,-1,1,0.0,239255,0.03,0.01,0.02,0.01,0.0,0.01,0.0,0,0,1,0,,,,,,,,,,239053,0,73,5,1,239053,0,-14,86,12,108,,,,,,,,,,239222,0,27497,1617,264,5201,71.3725585938,,,,,,,,239255,-44.1207122803,1.98691225052,-44.1207122803,1.98691225052,0.0,0.0,-8.15564060211,-5.3102850914,-3.28238177299,-47.5976715088,239245,0,0,0,-0.128645509481,-0.119999997318,-0.14,0.0,0.0,-250,-2,239232,35,173,-137,-54,1,-102,0,0,0,239232,-7,202,-153,-178,234,-387,0,0,0,,,,,,,,,,,214,4000,11488,0,0,0,0,239255,0.28,0.19,0.52,-2.77,262.14,262.14,0.13,0.0,5,360,,10,,,,,,,7,936409,,,,
TERRAIN_SPACING,100.0,3,334048800,1905,8,1.82,-19.8609326,-43.9601876,-0.14,802.03,0.16,254.16,0.0499999970198,240402,240455,-0.00334228482097,0.0064448043704,0.00480801053345,-0.571232616901,0.0318094976246,-9.977602005,Frame: OCTA_QUAD,240362,1493,1501,992,992,1327,992,992,1504,0,0,0,0,0,0,240362,1082,1082,1082,1082,1082,1082,1082,1082,240451,-0.045762129128,92841.625,38.8,-0.023749474436,240229,5.19,5.02,3,,,,,,,,,,,,240424,38,0,100,44,0,0,0,,,,,,,,,,,,,,,,,,,,,,,,240434,-0.000739613547921,-0.00096669793129,0.00486701820046,-0.465445160866,-0.0363628864288,-9.75636291504,,,,,,,,240362,-0.16,-2.96,262.85,802.709960938,-19.8609321,-43.960188,,,,,,,,240362,-0.16,-2.96,262.85,-0.0527879185975,-0.0215505342931,-0.124657265842,-0.457298099995,0.0218923427165,-0.0717466175556,-0.01,0.0,0.01,240362,49,3,-17,0.0,0.0,165,-64,-134,54,0,102,240362,0.0,0.0,-0.04,0.08,-0.04,-0.29,4,0,1,0.0,240362,0.0,0.01,0.02,0.03,0.0,0.0,0.0,0,0,1,0,,,,,,,,,,239053,0,73,5,1,239053,0,-14,86,12,108,,,,,,,,,,240229,0,27497,1617,260,5194,72.1059265137,,,,,,,,240362,-51.1726341248,-0.386583328247,-51.1726341248,-0.386583328247,0.0,0.0,-7.06475114822,-6.08319234848,-4.26370000839,-47.5534744263,240452,0,0,0,-0.150338441133,-0.149999991059,-0.04,0.0,0.0,-250,-2,240440,34,173,-137,-54,1,-102,0,0,0,240440,-8,201,-152,-178,234,-387,0,0,0,,,,,,,,,,,214,4000,11488,0,0,0,0,240362,0.28,0.13,0.52,-2.78,262.07,262.07,0.06,0.01,5,360,,10,,,,,,,7,936409,,,,
TERRAIN_SPACING,100.0,3,334061000,1905,8,1.82,-19.8609312,-43.9601798,0.01,802.59,0.09,254.16,-0.129999995232,252586,252584,-0.000197133049369,-0.00384090095758,-0.00680032745004,-0.483502864838,0.0878206044436,-10.152715683,Frame: OCTA_QUAD,252605,1493,1501,997,1522,1327,992,992,1504,0,0,0,0,0,0,252503,1082,1082,1082,1082,1082,1082,1082,1082,252596,0.0973082184792,92843.0078125,38.97,0.17260068655,251761,5.18,5.02,3,,,,,,,,,,,,252193,38,0,100,43,0,0,0,,,,,,,,,,,,,,,,,,,,,,,,252584,-0.00251062214375,-0.00777718052268,-0.00505107268691,-0.568113565445,0.188719272614,-9.66459178925,,,,,,,,252605,-0.28,-3.01,262.63,802.309997559,-19.8609307,-43.9601807,,,,,,,,252604,-0.28,-3.01,262.63,0.0968925952911,0.0616015307605,-0.191787138581,0.136109426618,0.0786334723234,0.0856276974082,0.0,0.0,0.01,252604,49,5,-23,0.0,0.0,164,-64,-135,54,0,102,252605,0.03,0.01,-0.04,0.04,-0.1,0.19,4,0,0,0.0,252605,0.0,0.02,0.01,0.02,0.0,0.0,0.0,0,0,1,0,,,,,,,,,,239053,0,73,5,1,239053,0,-14,86,12,108,,,,,,,,,,251761,0,27497,1619,211,5188,73.6142196655,,,,,,,,252503,7.95758104324,15.8581666946,7.95758104324,15.8581666946,0.0,0.0,6.55109357834,14.2390012741,-5.62678146362,-46.4819374084,252596,0,0,0,0.0175153613091,0.00999999977648,0.09,0.0,0.0,-250,-1,252581,31,172,-137,-54,1,-102,0,0,0,252581,-11,202,-147,-178,234,-387,0,0,0,,,,,,,,,,,214,4000,11488,0,0,0,0,252604,0.28,0.1,0.52,-2.74,261.78,261.78,0.03,0.01,5,360,,10,,,,,,,7,936409,,,,
TERRAIN_SPACING,100.0,3,334062000,1905,8,1.82,-19.8609306,-43.9601791,0.03,802.55,0.02,254.16,0.0599999986589,253597,253775,-0.000389945693314,-0.000288225710392,-0.000677552074194,-0.460846066475,0.0957380831242,-10.3384275436,Frame: OCTA_QUAD,253715,1493,1501,997,1522,1327,992,992,1504,0,0,0,0,0,0,253715,1082,1082,1082,1082,1082,1082,1082,1082,253708,0.208926483989,92841.859375,38.97,0.240200728178,252774,5.2,5.02,3,,,,,,,,,,,,252880,38,0,100,42,0,0,0,,,,,,,,,,,,,,,,,,,,,,,,253755,-0.00117714703083,0.00136455148458,0.00634082872421,-0.557866573334,0.157446146011,-9.79560184479,,,,,,,,253715,-0.37,-2.99,262.61,802.549987793,-19.8609304,-43.9601797,,,,,,,,253715,-0.37,-2.99,262.61,0.0316793806851,0.0734758377075,-0.23249438405,0.169960170984,0.180122464895,-0.150619775057,0.0,0.0,0.01,253715,48,5,-22,0.0,0.0,164,-64,-135,54,0,102,253715,0.04,0.06,-0.28,0.03,-0.08,0.07,2,0,1,0.0,253715,0.04,0.01,0.0,0.01,0.0,0.0,0.0,0,0,1,0,,,,,,,,,,253052,0,71,5,1,253073,0,-13,85,10,105,,,,,,,,,,252774,0,27497,1619,266,5206,74.4468688965,,,,,,,,253715,16.7431430817,32.9660224915,16.7431430817,32.9660224915,0.0,0.0,6.34036397934,14.1480617523,-5.31130170822,-47.2573928833,253708,0,0,0,0.0371500179172,0.0299999993294,0.2,0.0,0.0,-250,0,253692,33,173,-137,-54,1,-102,0,0,0,253692,-11,203,-149,-178,234,-387,0,0,0,,,,,,,,,,,214,4000,11488,0,0,0,0,253715,0.28,0.09,0.52,-2.77,261.73,261.73,0.07,0.0,5,360,,10,,,,,,,7,936409,,,,
